{
"type": "FeatureCollection",
"crs": { "type": "name", "properties": { "name": "urn:ogc:def:crs:OGC:1.3:CRS84" } },
"features": [
{ "type": "Feature", "properties": { "gid": 42, "area": 0.0, "perimeter": 0.0, "name": "昭通市", "pname": "云南", "pcode": "530000" }, "geometry": { "type": "Point", "coordinates": [ 103.715474837167875, 27.343272411470014 ] } },
{ "type": "Feature", "properties": { "gid": 43, "area": 0.0, "perimeter": 0.0, "name": "遵义市", "pname": "贵州", "pcode": "520000" }, "geometry": { "type": "Point", "coordinates": [ 106.931902635928196, 27.695622242555125 ] } },
{ "type": "Feature", "properties": { "gid": 44, "area": 0.0, "perimeter": 0.0, "name": "六盘水市", "pname": "贵州", "pcode": "520000" }, "geometry": { "type": "Point", "coordinates": [ 104.873634537921973, 26.577542134668597 ] } },
{ "type": "Feature", "properties": { "gid": 45, "area": 0.0, "perimeter": 0.0, "name": "安顺市", "pname": "贵州", "pcode": "520000" }, "geometry": { "type": "Point", "coordinates": [ 105.92813202669403, 26.243206909606403 ] } },
{ "type": "Feature", "properties": { "gid": 46, "area": 0.0, "perimeter": 0.0, "name": "凯里市", "pname": "贵州", "pcode": "520000" }, "geometry": { "type": "Point", "coordinates": [ 107.977367524730596, 26.591626290581043 ] } },
{ "type": "Feature", "properties": { "gid": 47, "area": 0.0, "perimeter": 0.0, "name": "都匀市", "pname": "贵州", "pcode": "520000" }, "geometry": { "type": "Point", "coordinates": [ 107.519074444344298, 26.265614284476065 ] } },
{ "type": "Feature", "properties": { "gid": 48, "area": 0.0, "perimeter": 0.0, "name": "曲靖市", "pname": "云南", "pcode": "530000" }, "geometry": { "type": "Point", "coordinates": [ 103.79699361618971, 25.495789608345177 ] } },
{ "type": "Feature", "properties": { "gid": 49, "area": 0.0, "perimeter": 0.0, "name": "兴义市", "pname": "贵州", "pcode": "520000" }, "geometry": { "type": "Point", "coordinates": [ 104.896412098432066, 25.087277490297353 ] } },
{ "type": "Feature", "properties": { "gid": 50, "area": 0.0, "perimeter": 0.0, "name": "玉溪市", "pname": "云南", "pcode": "530000" }, "geometry": { "type": "Point", "coordinates": [ 102.53749831226088, 24.35542631260893 ] } },
{ "type": "Feature", "properties": { "gid": 51, "area": 0.0, "perimeter": 0.0, "name": "铜仁市", "pname": "贵州", "pcode": "520000" }, "geometry": { "type": "Point", "coordinates": [ 109.193053410783435, 27.722473545912571 ] } },
{ "type": "Feature", "properties": { "gid": 52, "area": 0.0, "perimeter": 0.0, "name": "怀化市", "pname": "湖南", "pcode": "430000" }, "geometry": { "type": "Point", "coordinates": [ 109.957193189606926, 27.547099660067246 ] } },
{ "type": "Feature", "properties": { "gid": 53, "area": 0.0, "perimeter": 0.0, "name": "娄底市", "pname": "湖南", "pcode": "430000" }, "geometry": { "type": "Point", "coordinates": [ 111.992717850916506, 27.741840970209662 ] } },
{ "type": "Feature", "properties": { "gid": 54, "area": 0.0, "perimeter": 0.0, "name": "邵阳市", "pname": "湖南", "pcode": "430000" }, "geometry": { "type": "Point", "coordinates": [ 111.475362296678355, 27.249292106501176 ] } },
{ "type": "Feature", "properties": { "gid": 55, "area": 0.0, "perimeter": 0.0, "name": "湘潭市", "pname": "湖南", "pcode": "430000" }, "geometry": { "type": "Point", "coordinates": [ 112.911722599838569, 27.872687540277681 ] } },
{ "type": "Feature", "properties": { "gid": 56, "area": 0.0, "perimeter": 0.0, "name": "株洲市", "pname": "湖南", "pcode": "430000" }, "geometry": { "type": "Point", "coordinates": [ 113.150478787309851, 27.852544186674216 ] } },
{ "type": "Feature", "properties": { "gid": 57, "area": 0.0, "perimeter": 0.0, "name": "萍乡市", "pname": "江西", "pcode": "360000" }, "geometry": { "type": "Point", "coordinates": [ 113.839125852523551, 27.63140380988618 ] } },
{ "type": "Feature", "properties": { "gid": 58, "area": 0.0, "perimeter": 0.0, "name": "永州市", "pname": "湖南", "pcode": "430000" }, "geometry": { "type": "Point", "coordinates": [ 111.612982069061573, 26.210287264916627 ] } },
{ "type": "Feature", "properties": { "gid": 59, "area": 0.0, "perimeter": 0.0, "name": "衡阳市", "pname": "湖南", "pcode": "430000" }, "geometry": { "type": "Point", "coordinates": [ 112.597490379096797, 26.901581129333202 ] } },
{ "type": "Feature", "properties": { "gid": 60, "area": 0.0, "perimeter": 0.0, "name": "桂林市", "pname": "广西", "pcode": "450000" }, "geometry": { "type": "Point", "coordinates": [ 110.286644357407496, 25.27998641489615 ] } },
{ "type": "Feature", "properties": { "gid": 61, "area": 0.0, "perimeter": 0.0, "name": "郴州市", "pname": "湖南", "pcode": "430000" }, "geometry": { "type": "Point", "coordinates": [ 113.025597203325944, 25.80265184590834 ] } },
{ "type": "Feature", "properties": { "gid": 62, "area": 0.0, "perimeter": 0.0, "name": "河池市", "pname": "广西", "pcode": "450000" }, "geometry": { "type": "Point", "coordinates": [ 108.049894283873414, 24.694013566249268 ] } },
{ "type": "Feature", "properties": { "gid": 63, "area": 0.0, "perimeter": 0.0, "name": "柳州市", "pname": "广西", "pcode": "450000" }, "geometry": { "type": "Point", "coordinates": [ 109.404758544833015, 24.309889884739626 ] } },
{ "type": "Feature", "properties": { "gid": 64, "area": 0.0, "perimeter": 0.0, "name": "贺州市", "pname": "广西", "pcode": "450000" }, "geometry": { "type": "Point", "coordinates": [ 111.534963894863523, 24.417158405705212 ] } },
{ "type": "Feature", "properties": { "gid": 65, "area": 0.0, "perimeter": 0.0, "name": "韶关市", "pname": "广东", "pcode": "440000" }, "geometry": { "type": "Point", "coordinates": [ 113.603888272820626, 24.810113053264175 ] } },
{ "type": "Feature", "properties": { "gid": 66, "area": 0.0, "perimeter": 0.0, "name": "新余市", "pname": "江西", "pcode": "360000" }, "geometry": { "type": "Point", "coordinates": [ 114.931655092022282, 27.804055526957463 ] } },
{ "type": "Feature", "properties": { "gid": 67, "area": 0.0, "perimeter": 0.0, "name": "宜春市", "pname": "江西", "pcode": "360000" }, "geometry": { "type": "Point", "coordinates": [ 114.376390598408747, 27.794248303246828 ] } },
{ "type": "Feature", "properties": { "gid": 68, "area": 0.0, "perimeter": 0.0, "name": "吉安市", "pname": "江西", "pcode": "360000" }, "geometry": { "type": "Point", "coordinates": [ 114.971792882153878, 27.103200477988061 ] } },
{ "type": "Feature", "properties": { "gid": 69, "area": 0.0, "perimeter": 0.0, "name": "临川市", "pname": "江西", "pcode": "360000" }, "geometry": { "type": "Point", "coordinates": [ 116.351892742262166, 27.984760881867853 ] } },
{ "type": "Feature", "properties": { "gid": 70, "area": 0.0, "perimeter": 0.0, "name": "三明市", "pname": "福建", "pcode": "350000" }, "geometry": { "type": "Point", "coordinates": [ 117.603695791852559, 26.21997872214941 ] } },
{ "type": "Feature", "properties": { "gid": 71, "area": 0.0, "perimeter": 0.0, "name": "南平市", "pname": "福建", "pcode": "350000" }, "geometry": { "type": "Point", "coordinates": [ 118.169772167717582, 26.642110633848059 ] } },
{ "type": "Feature", "properties": { "gid": 72, "area": 0.0, "perimeter": 0.0, "name": "宁德市", "pname": "福建", "pcode": "350000" }, "geometry": { "type": "Point", "coordinates": [ 119.517896031782513, 26.661148360714517 ] } },
{ "type": "Feature", "properties": { "gid": 73, "area": 0.0, "perimeter": 0.0, "name": "赣州市", "pname": "江西", "pcode": "360000" }, "geometry": { "type": "Point", "coordinates": [ 114.932986350744343, 25.846927722191086 ] } },
{ "type": "Feature", "properties": { "gid": 74, "area": 0.0, "perimeter": 0.0, "name": "龙岩市", "pname": "福建", "pcode": "350000" }, "geometry": { "type": "Point", "coordinates": [ 117.029716111405435, 25.103622174515113 ] } },
{ "type": "Feature", "properties": { "gid": 75, "area": 0.0, "perimeter": 0.0, "name": "莆田市", "pname": "福建", "pcode": "350000" }, "geometry": { "type": "Point", "coordinates": [ 119.011707039046712, 25.433855138311763 ] } },
{ "type": "Feature", "properties": { "gid": 76, "area": 0.0, "perimeter": 0.0, "name": "梅州市", "pname": "广东", "pcode": "440000" }, "geometry": { "type": "Point", "coordinates": [ 116.111029692585959, 24.31566340691813 ] } },
{ "type": "Feature", "properties": { "gid": 77, "area": 0.0, "perimeter": 0.0, "name": "漳州市", "pname": "福建", "pcode": "350000" }, "geometry": { "type": "Point", "coordinates": [ 117.653618992157789, 24.511626045397435 ] } },
{ "type": "Feature", "properties": { "gid": 78, "area": 0.0, "perimeter": 0.0, "name": "泉州市", "pname": "福建", "pcode": "350000" }, "geometry": { "type": "Point", "coordinates": [ 118.590494048687191, 24.909529977783816 ] } },
{ "type": "Feature", "properties": { "gid": 79, "area": 0.0, "perimeter": 0.0, "name": "厦门市", "pname": "福建", "pcode": "350000" }, "geometry": { "type": "Point", "coordinates": [ 118.086559438320322, 24.450277769199033 ] } },
{ "type": "Feature", "properties": { "gid": 80, "area": 0.0, "perimeter": 0.0, "name": "基隆市", "pname": "台湾", "pcode": "710000" }, "geometry": { "type": "Point", "coordinates": [ 121.738782173329412, 25.131873401706589 ] } },
{ "type": "Feature", "properties": { "gid": 81, "area": 0.0, "perimeter": 0.0, "name": "台中市", "pname": "台湾", "pcode": "710000" }, "geometry": { "type": "Point", "coordinates": [ 120.671841204871996, 24.142240266001387 ] } },
{ "type": "Feature", "properties": { "gid": 82, "area": 0.0, "perimeter": 0.0, "name": "日喀则市", "pname": "西藏", "pcode": "540000" }, "geometry": { "type": "Point", "coordinates": [ 88.876637307377678, 29.272105678700715 ] } },
{ "type": "Feature", "properties": { "gid": 83, "area": 0.0, "perimeter": 0.0, "name": "林芝县", "pname": "西藏", "pcode": "540000" }, "geometry": { "type": "Point", "coordinates": [ 94.484207020273033, 29.580404196922323 ] } },
{ "type": "Feature", "properties": { "gid": 84, "area": 0.0, "perimeter": 0.0, "name": "昌都", "pname": "西藏", "pcode": "540000" }, "geometry": { "type": "Point", "coordinates": [ 97.166175587946015, 31.143241014899512 ] } },
{ "type": "Feature", "properties": { "gid": 85, "area": 0.0, "perimeter": 0.0, "name": "绵阳市", "pname": "四川", "pcode": "510000" }, "geometry": { "type": "Point", "coordinates": [ 104.749552826905642, 31.459117238055896 ] } },
{ "type": "Feature", "properties": { "gid": 86, "area": 0.0, "perimeter": 0.0, "name": "德阳市", "pname": "四川", "pcode": "510000" }, "geometry": { "type": "Point", "coordinates": [ 104.391251897700229, 31.132473866352896 ] } },
{ "type": "Feature", "properties": { "gid": 87, "area": 0.0, "perimeter": 0.0, "name": "巴中市", "pname": "四川", "pcode": "510000" }, "geometry": { "type": "Point", "coordinates": [ 106.755070423481186, 31.849130596407274 ] } },
{ "type": "Feature", "properties": { "gid": 88, "area": 0.0, "perimeter": 0.0, "name": "达县市", "pname": "四川", "pcode": "510000" }, "geometry": { "type": "Point", "coordinates": [ 107.500419153010597, 31.227066585011837 ] } },
{ "type": "Feature", "properties": { "gid": 89, "area": 0.0, "perimeter": 0.0, "name": "遂宁市", "pname": "四川", "pcode": "510000" }, "geometry": { "type": "Point", "coordinates": [ 105.5704831806991, 30.504000084950764 ] } },
{ "type": "Feature", "properties": { "gid": 90, "area": 0.0, "perimeter": 0.0, "name": "南充市", "pname": "四川", "pcode": "510000" }, "geometry": { "type": "Point", "coordinates": [ 106.081018242907419, 30.799075157436793 ] } },
{ "type": "Feature", "properties": { "gid": 91, "area": 0.0, "perimeter": 0.0, "name": "雅安市", "pname": "四川", "pcode": "510000" }, "geometry": { "type": "Point", "coordinates": [ 102.984569954020273, 29.985628336188626 ] } },
{ "type": "Feature", "properties": { "gid": 92, "area": 0.0, "perimeter": 0.0, "name": "乐山市", "pname": "四川", "pcode": "510000" }, "geometry": { "type": "Point", "coordinates": [ 103.751780393932151, 29.57074554741828 ] } },
{ "type": "Feature", "properties": { "gid": 93, "area": 0.0, "perimeter": 0.0, "name": "自贡市", "pname": "四川", "pcode": "510000" }, "geometry": { "type": "Point", "coordinates": [ 104.776238234971586, 29.37037516257811 ] } },
{ "type": "Feature", "properties": { "gid": 94, "area": 0.0, "perimeter": 0.0, "name": "内江市", "pname": "四川", "pcode": "510000" }, "geometry": { "type": "Point", "coordinates": [ 105.054146420674599, 29.580812489570615 ] } },
{ "type": "Feature", "properties": { "gid": 95, "area": 0.0, "perimeter": 0.0, "name": "宜宾市", "pname": "四川", "pcode": "510000" }, "geometry": { "type": "Point", "coordinates": [ 104.616602436456816, 28.774867870965206 ] } },
{ "type": "Feature", "properties": { "gid": 96, "area": 0.0, "perimeter": 0.0, "name": "泸州市", "pname": "四川", "pcode": "510000" }, "geometry": { "type": "Point", "coordinates": [ 105.437265187207942, 28.884400376430143 ] } },
{ "type": "Feature", "properties": { "gid": 97, "area": 0.0, "perimeter": 0.0, "name": "荆门市", "pname": "湖北", "pcode": "420000" }, "geometry": { "type": "Point", "coordinates": [ 112.198877772968686, 31.028805802594466 ] } },
{ "type": "Feature", "properties": { "gid": 98, "area": 0.0, "perimeter": 0.0, "name": "恩施市", "pname": "湖北", "pcode": "420000" }, "geometry": { "type": "Point", "coordinates": [ 109.478990268129891, 30.272324913356133 ] } },
{ "type": "Feature", "properties": { "gid": 99, "area": 0.0, "perimeter": 0.0, "name": "宜昌市", "pname": "湖北", "pcode": "420000" }, "geometry": { "type": "Point", "coordinates": [ 111.287551450849989, 30.704299102315428 ] } },
{ "type": "Feature", "properties": { "gid": 100, "area": 0.0, "perimeter": 0.0, "name": "沙市市", "pname": "湖北", "pcode": "420000" }, "geometry": { "type": "Point", "coordinates": [ 112.249155784577383, 30.316369268008877 ] } },
{ "type": "Feature", "properties": { "gid": 101, "area": 0.0, "perimeter": 0.0, "name": "孝感市", "pname": "湖北", "pcode": "420000" }, "geometry": { "type": "Point", "coordinates": [ 113.910853629197703, 30.926290657689265 ] } },
{ "type": "Feature", "properties": { "gid": 102, "area": 0.0, "perimeter": 0.0, "name": "大庸市", "pname": "湖南", "pcode": "430000" }, "geometry": { "type": "Point", "coordinates": [ 110.485113138340481, 29.127984547598121 ] } },
{ "type": "Feature", "properties": { "gid": 103, "area": 0.0, "perimeter": 0.0, "name": "常德市", "pname": "湖南", "pcode": "430000" }, "geometry": { "type": "Point", "coordinates": [ 111.691735149796202, 29.034832230888448 ] } },
{ "type": "Feature", "properties": { "gid": 104, "area": 0.0, "perimeter": 0.0, "name": "岳阳市", "pname": "湖南", "pcode": "430000" }, "geometry": { "type": "Point", "coordinates": [ 113.098134185164653, 29.371289609963373 ] } },
{ "type": "Feature", "properties": { "gid": 105, "area": 0.0, "perimeter": 0.0, "name": "吉首市", "pname": "湖南", "pcode": "430000" }, "geometry": { "type": "Point", "coordinates": [ 109.733399893699072, 28.310358273485079 ] } },
{ "type": "Feature", "properties": { "gid": 106, "area": 0.0, "perimeter": 0.0, "name": "益阳市", "pname": "湖南", "pcode": "430000" }, "geometry": { "type": "Point", "coordinates": [ 112.335740466230064, 28.597820201608219 ] } },
{ "type": "Feature", "properties": { "gid": 107, "area": 0.0, "perimeter": 0.0, "name": "麻城市", "pname": "湖北", "pcode": "420000" }, "geometry": { "type": "Point", "coordinates": [ 115.031505149098876, 31.180988999260716 ] } },
{ "type": "Feature", "properties": { "gid": 108, "area": 0.0, "perimeter": 0.0, "name": "六安市", "pname": "安徽", "pcode": "340000" }, "geometry": { "type": "Point", "coordinates": [ 116.494697752259938, 31.754674976263477 ] } },
{ "type": "Feature", "properties": { "gid": 109, "area": 0.0, "perimeter": 0.0, "name": "巢湖市", "pname": "安徽", "pcode": "340000" }, "geometry": { "type": "Point", "coordinates": [ 117.86546325080765, 31.601805520869121 ] } },
{ "type": "Feature", "properties": { "gid": 110, "area": 0.0, "perimeter": 0.0, "name": "马鞍山市", "pname": "安徽", "pcode": "340000" }, "geometry": { "type": "Point", "coordinates": [ 118.483300397175, 31.725327772338215 ] } },
{ "type": "Feature", "properties": { "gid": 111, "area": 0.0, "perimeter": 0.0, "name": "芜湖市", "pname": "安徽", "pcode": "340000" }, "geometry": { "type": "Point", "coordinates": [ 118.363244625537206, 31.335009064811587 ] } },
{ "type": "Feature", "properties": { "gid": 112, "area": 0.0, "perimeter": 0.0, "name": "常州市", "pname": "江苏", "pcode": "320000" }, "geometry": { "type": "Point", "coordinates": [ 119.952969368127711, 31.782847786337921 ] } },
{ "type": "Feature", "properties": { "gid": 113, "area": 0.0, "perimeter": 0.0, "name": "鄂州市", "pname": "湖北", "pcode": "420000" }, "geometry": { "type": "Point", "coordinates": [ 114.880436832574404, 30.402768713367983 ] } },
{ "type": "Feature", "properties": { "gid": 114, "area": 0.0, "perimeter": 0.0, "name": "黄石市", "pname": "湖北", "pcode": "420000" }, "geometry": { "type": "Point", "coordinates": [ 115.077191045502673, 30.212446802041242 ] } },
{ "type": "Feature", "properties": { "gid": 115, "area": 0.0, "perimeter": 0.0, "name": "铜陵市", "pname": "安徽", "pcode": "340000" }, "geometry": { "type": "Point", "coordinates": [ 117.814117530888225, 30.923454807232364 ] } },
{ "type": "Feature", "properties": { "gid": 116, "area": 0.0, "perimeter": 0.0, "name": "贵池市", "pname": "安徽", "pcode": "340000" }, "geometry": { "type": "Point", "coordinates": [ 117.482427140223677, 30.654707221108502 ] } },
{ "type": "Feature", "properties": { "gid": 117, "area": 0.0, "perimeter": 0.0, "name": "安庆市", "pname": "安徽", "pcode": "340000" }, "geometry": { "type": "Point", "coordinates": [ 117.035264520446958, 30.512339466682519 ] } },
{ "type": "Feature", "properties": { "gid": 118, "area": 0.0, "perimeter": 0.0, "name": "宣州市", "pname": "安徽", "pcode": "340000" }, "geometry": { "type": "Point", "coordinates": [ 118.74313202137489, 30.946988976082341 ] } },
{ "type": "Feature", "properties": { "gid": 119, "area": 0.0, "perimeter": 0.0, "name": "咸宁市", "pname": "湖北", "pcode": "420000" }, "geometry": { "type": "Point", "coordinates": [ 114.272127972547267, 29.892518367212251 ] } },
{ "type": "Feature", "properties": { "gid": 120, "area": 0.0, "perimeter": 0.0, "name": "九江市", "pname": "湖北", "pcode": "420000" }, "geometry": { "type": "Point", "coordinates": [ 115.986232408416399, 29.722391917426378 ] } },
{ "type": "Feature", "properties": { "gid": 121, "area": 0.0, "perimeter": 0.0, "name": "景德镇市", "pname": "江西", "pcode": "360000" }, "geometry": { "type": "Point", "coordinates": [ 117.21087199439647, 29.290653163790314 ] } },
{ "type": "Feature", "properties": { "gid": 122, "area": 0.0, "perimeter": 0.0, "name": "黄山市", "pname": "安徽", "pcode": "340000" }, "geometry": { "type": "Point", "coordinates": [ 118.309712968360813, 29.715696512946302 ] } },
{ "type": "Feature", "properties": { "gid": 123, "area": 0.0, "perimeter": 0.0, "name": "金华市", "pname": "浙江", "pcode": "330000" }, "geometry": { "type": "Point", "coordinates": [ 119.650563624811753, 29.104707072469907 ] } },
{ "type": "Feature", "properties": { "gid": 124, "area": 0.0, "perimeter": 0.0, "name": "上饶市", "pname": "江西", "pcode": "360000" }, "geometry": { "type": "Point", "coordinates": [ 117.965486716832146, 28.450676527442841 ] } },
{ "type": "Feature", "properties": { "gid": 125, "area": 0.0, "perimeter": 0.0, "name": "鹰潭市", "pname": "江西", "pcode": "360000" }, "geometry": { "type": "Point", "coordinates": [ 117.033121629262382, 28.241102941963646 ] } },
{ "type": "Feature", "properties": { "gid": 126, "area": 0.0, "perimeter": 0.0, "name": "衢州市", "pname": "浙江", "pcode": "330000" }, "geometry": { "type": "Point", "coordinates": [ 118.86827275999886, 28.956815862510286 ] } },
{ "type": "Feature", "properties": { "gid": 127, "area": 0.0, "perimeter": 0.0, "name": "丽水市", "pname": "浙江", "pcode": "330000" }, "geometry": { "type": "Point", "coordinates": [ 119.91365626084864, 28.448708577565501 ] } },
{ "type": "Feature", "properties": { "gid": 128, "area": 0.0, "perimeter": 0.0, "name": "无锡市", "pname": "江苏", "pcode": "320000" }, "geometry": { "type": "Point", "coordinates": [ 120.298346859945426, 31.574670524905724 ] } },
{ "type": "Feature", "properties": { "gid": 129, "area": 0.0, "perimeter": 0.0, "name": "苏州市", "pname": "江苏", "pcode": "320000" }, "geometry": { "type": "Point", "coordinates": [ 120.61930328323399, 31.312757988140792 ] } },
{ "type": "Feature", "properties": { "gid": 130, "area": 0.0, "perimeter": 0.0, "name": "湖州市", "pname": "浙江", "pcode": "330000" }, "geometry": { "type": "Point", "coordinates": [ 120.099976704054981, 30.865003011958542 ] } },
{ "type": "Feature", "properties": { "gid": 131, "area": 0.0, "perimeter": 0.0, "name": "嘉兴市", "pname": "浙江", "pcode": "330000" }, "geometry": { "type": "Point", "coordinates": [ 120.753882855886729, 30.767502060314833 ] } },
{ "type": "Feature", "properties": { "gid": 132, "area": 0.0, "perimeter": 0.0, "name": "绍兴市", "pname": "浙江", "pcode": "330000" }, "geometry": { "type": "Point", "coordinates": [ 120.578933113128727, 30.004529055505664 ] } },
{ "type": "Feature", "properties": { "gid": 133, "area": 0.0, "perimeter": 0.0, "name": "舟山市", "pname": null, "pcode": null }, "geometry": { "type": "Point", "coordinates": [ 122.101811779761022, 30.01516632057238 ] } },
{ "type": "Feature", "properties": { "gid": 134, "area": 0.0, "perimeter": 0.0, "name": "宁波市", "pname": "浙江", "pcode": "330000" }, "geometry": { "type": "Point", "coordinates": [ 121.543356645728437, 29.866321444424255 ] } },
{ "type": "Feature", "properties": { "gid": 135, "area": 0.0, "perimeter": 0.0, "name": "温州市", "pname": "浙江", "pcode": "330000" }, "geometry": { "type": "Point", "coordinates": [ 120.653882234155418, 28.018252753025116 ] } },
{ "type": "Feature", "properties": { "gid": 136, "area": 0.0, "perimeter": 0.0, "name": "临夏市", "pname": "甘肃", "pcode": "620000" }, "geometry": { "type": "Point", "coordinates": [ 103.21138968234294, 35.607512692578943 ] } },
{ "type": "Feature", "properties": { "gid": 137, "area": 0.0, "perimeter": 0.0, "name": "平凉市", "pname": "甘肃", "pcode": "620000" }, "geometry": { "type": "Point", "coordinates": [ 106.68598194698906, 35.536064928684951 ] } },
{ "type": "Feature", "properties": { "gid": 138, "area": 0.0, "perimeter": 0.0, "name": "西峰市", "pname": "甘肃", "pcode": "620000" }, "geometry": { "type": "Point", "coordinates": [ 107.638460718746657, 35.736769736267924 ] } },
{ "type": "Feature", "properties": { "gid": 139, "area": 0.0, "perimeter": 0.0, "name": "天水市", "pname": "甘肃", "pcode": "620000" }, "geometry": { "type": "Point", "coordinates": [ 105.717250102250389, 34.585666373774224 ] } },
{ "type": "Feature", "properties": { "gid": 140, "area": 0.0, "perimeter": 0.0, "name": "宝鸡市", "pname": "陕西", "pcode": "610000" }, "geometry": { "type": "Point", "coordinates": [ 107.140710609333553, 34.382055181196911 ] } },
{ "type": "Feature", "properties": { "gid": 141, "area": 0.0, "perimeter": 0.0, "name": "汉中市", "pname": "陕西", "pcode": "610000" }, "geometry": { "type": "Point", "coordinates": [ 107.035512647778191, 33.07663467411043 ] } },
{ "type": "Feature", "properties": { "gid": 142, "area": 0.0, "perimeter": 0.0, "name": "广元市", "pname": "四川", "pcode": "510000" }, "geometry": { "type": "Point", "coordinates": [ 105.833276333035187, 32.444025178689571 ] } },
{ "type": "Feature", "properties": { "gid": 143, "area": 0.0, "perimeter": 0.0, "name": "铜川市", "pname": "陕西", "pcode": "610000" }, "geometry": { "type": "Point", "coordinates": [ 109.05910906193553, 35.076393439552561 ] } },
{ "type": "Feature", "properties": { "gid": 144, "area": 0.0, "perimeter": 0.0, "name": "运城市", "pname": "山西", "pcode": "140000" }, "geometry": { "type": "Point", "coordinates": [ 110.993894437156683, 35.014587119856692 ] } },
{ "type": "Feature", "properties": { "gid": 145, "area": 0.0, "perimeter": 0.0, "name": "晋城市", "pname": "山西", "pcode": "140000" }, "geometry": { "type": "Point", "coordinates": [ 112.839660073044357, 35.504514088092918 ] } },
{ "type": "Feature", "properties": { "gid": 146, "area": 0.0, "perimeter": 0.0, "name": "新乡市", "pname": "河南", "pcode": "410000" }, "geometry": { "type": "Point", "coordinates": [ 113.868778106144958, 35.310126512292179 ] } },
{ "type": "Feature", "properties": { "gid": 147, "area": 0.0, "perimeter": 0.0, "name": "焦作市", "pname": "河南", "pcode": "410000" }, "geometry": { "type": "Point", "coordinates": [ 113.222939411903866, 35.251320710387198 ] } },
{ "type": "Feature", "properties": { "gid": 148, "area": 0.0, "perimeter": 0.0, "name": "咸阳市", "pname": "陕西", "pcode": "610000" }, "geometry": { "type": "Point", "coordinates": [ 108.710325623136598, 34.339233484193777 ] } },
{ "type": "Feature", "properties": { "gid": 149, "area": 0.0, "perimeter": 0.0, "name": "渭南市", "pname": "陕西", "pcode": "610000" }, "geometry": { "type": "Point", "coordinates": [ 109.501639074760931, 34.503179438550866 ] } },
{ "type": "Feature", "properties": { "gid": 150, "area": 0.0, "perimeter": 0.0, "name": "三门峡市", "pname": "山西", "pcode": "140000" }, "geometry": { "type": "Point", "coordinates": [ 111.195418939513246, 34.781883097622263 ] } },
{ "type": "Feature", "properties": { "gid": 151, "area": 0.0, "perimeter": 0.0, "name": "洛阳市", "pname": "河南", "pcode": "410000" }, "geometry": { "type": "Point", "coordinates": [ 112.383112059563913, 34.665451422242199 ] } },
{ "type": "Feature", "properties": { "gid": 152, "area": 0.0, "perimeter": 0.0, "name": "许昌市", "pname": "河南", "pcode": "410000" }, "geometry": { "type": "Point", "coordinates": [ 113.820268700323211, 34.031543532019199 ] } },
{ "type": "Feature", "properties": { "gid": 153, "area": 0.0, "perimeter": 0.0, "name": "商州市", "pname": "陕西", "pcode": "610000" }, "geometry": { "type": "Point", "coordinates": [ 109.932868360734872, 33.870054814536395 ] } },
{ "type": "Feature", "properties": { "gid": 154, "area": 0.0, "perimeter": 0.0, "name": "南阳市", "pname": "河南", "pcode": "410000" }, "geometry": { "type": "Point", "coordinates": [ 112.535947055207387, 33.001807994260965 ] } },
{ "type": "Feature", "properties": { "gid": 155, "area": 0.0, "perimeter": 0.0, "name": "平顶山市", "pname": "河南", "pcode": "410000" }, "geometry": { "type": "Point", "coordinates": [ 113.301012524772858, 33.747675067195892 ] } },
{ "type": "Feature", "properties": { "gid": 156, "area": 0.0, "perimeter": 0.0, "name": "安康市", "pname": "陕西", "pcode": "610000" }, "geometry": { "type": "Point", "coordinates": [ 109.027347500262835, 32.693759603959407 ] } },
{ "type": "Feature", "properties": { "gid": 157, "area": 0.0, "perimeter": 0.0, "name": "十堰市", "pname": "湖北", "pcode": "420000" }, "geometry": { "type": "Point", "coordinates": [ 110.784966572232989, 32.656838965413314 ] } },
{ "type": "Feature", "properties": { "gid": 158, "area": 0.0, "perimeter": 0.0, "name": "丹江口市", "pname": "湖北", "pcode": "420000" }, "geometry": { "type": "Point", "coordinates": [ 111.50828616651954, 32.545855438036696 ] } },
{ "type": "Feature", "properties": { "gid": 159, "area": 0.0, "perimeter": 0.0, "name": "襄樊市", "pname": "湖北", "pcode": "420000" }, "geometry": { "type": "Point", "coordinates": [ 112.139621148908191, 32.049326703424491 ] } },
{ "type": "Feature", "properties": { "gid": 160, "area": 0.0, "perimeter": 0.0, "name": "鹤壁市", "pname": "河南", "pcode": "410000" }, "geometry": { "type": "Point", "coordinates": [ 114.174210732424882, 35.904260986064465 ] } },
{ "type": "Feature", "properties": { "gid": 161, "area": 0.0, "perimeter": 0.0, "name": "菏泽市", "pname": "山东", "pcode": "370000" }, "geometry": { "type": "Point", "coordinates": [ 115.444702117127065, 35.250429757924245 ] } },
{ "type": "Feature", "properties": { "gid": 162, "area": 0.0, "perimeter": 0.0, "name": "濮阳市", "pname": "河南", "pcode": "410000" }, "geometry": { "type": "Point", "coordinates": [ 115.006493321919308, 35.754477185416285 ] } },
{ "type": "Feature", "properties": { "gid": 163, "area": 0.0, "perimeter": 0.0, "name": "济宁市", "pname": "山东", "pcode": "370000" }, "geometry": { "type": "Point", "coordinates": [ 116.578474985374186, 35.410607473739844 ] } },
{ "type": "Feature", "properties": { "gid": 164, "area": 0.0, "perimeter": 0.0, "name": "临沂市", "pname": "山东", "pcode": "370000" }, "geometry": { "type": "Point", "coordinates": [ 118.341601152270741, 35.071718422048356 ] } },
{ "type": "Feature", "properties": { "gid": 165, "area": 0.0, "perimeter": 0.0, "name": "日照市", "pname": null, "pcode": null }, "geometry": { "type": "Point", "coordinates": [ 119.547096788044371, 35.393341145827158 ] } },
{ "type": "Feature", "properties": { "gid": 166, "area": 0.0, "perimeter": 0.0, "name": "开封市", "pname": "河南", "pcode": "410000" }, "geometry": { "type": "Point", "coordinates": [ 114.343868093742529, 34.785647431606407 ] } },
{ "type": "Feature", "properties": { "gid": 167, "area": 0.0, "perimeter": 0.0, "name": "商丘市", "pname": "河南", "pcode": "410000" }, "geometry": { "type": "Point", "coordinates": [ 115.646642192957088, 34.447817511501242 ] } },
{ "type": "Feature", "properties": { "gid": 168, "area": 0.0, "perimeter": 0.0, "name": "枣庄市", "pname": "山东", "pcode": "370000" }, "geometry": { "type": "Point", "coordinates": [ 117.560418135833132, 34.872578313838837 ] } },
{ "type": "Feature", "properties": { "gid": 169, "area": 0.0, "perimeter": 0.0, "name": "徐州市", "pname": "江苏", "pcode": "320000" }, "geometry": { "type": "Point", "coordinates": [ 117.188293437047321, 34.269777333336478 ] } },
{ "type": "Feature", "properties": { "gid": 170, "area": 0.0, "perimeter": 0.0, "name": "连云港市", "pname": "江苏", "pcode": "320000" }, "geometry": { "type": "Point", "coordinates": [ 119.171630063937371, 34.604793714089702 ] } },
{ "type": "Feature", "properties": { "gid": 171, "area": 0.0, "perimeter": 0.0, "name": "周口市", "pname": "河南", "pcode": "410000" }, "geometry": { "type": "Point", "coordinates": [ 114.635878874795665, 33.629639278491929 ] } },
{ "type": "Feature", "properties": { "gid": 172, "area": 0.0, "perimeter": 0.0, "name": "漯河市", "pname": "河南", "pcode": "410000" }, "geometry": { "type": "Point", "coordinates": [ 114.040772060502661, 33.573610330224938 ] } },
{ "type": "Feature", "properties": { "gid": 173, "area": 0.0, "perimeter": 0.0, "name": "淮北市", "pname": "安徽", "pcode": "340000" }, "geometry": { "type": "Point", "coordinates": [ 116.790170402584678, 33.971386418949258 ] } },
{ "type": "Feature", "properties": { "gid": 174, "area": 0.0, "perimeter": 0.0, "name": "宿州市", "pname": "安徽", "pcode": "340000" }, "geometry": { "type": "Point", "coordinates": [ 116.972003065376356, 33.642495832829084 ] } },
{ "type": "Feature", "properties": { "gid": 175, "area": 0.0, "perimeter": 0.0, "name": "宿迁市", "pname": "江苏", "pcode": "320000" }, "geometry": { "type": "Point", "coordinates": [ 118.297701359782167, 33.958431472635567 ] } },
{ "type": "Feature", "properties": { "gid": 176, "area": 0.0, "perimeter": 0.0, "name": "淮阴市", "pname": "江苏", "pcode": "320000" }, "geometry": { "type": "Point", "coordinates": [ 119.017347965950577, 33.588471984642126 ] } },
{ "type": "Feature", "properties": { "gid": 177, "area": 0.0, "perimeter": 0.0, "name": "驻马店市", "pname": "河南", "pcode": "410000" }, "geometry": { "type": "Point", "coordinates": [ 114.035308367344513, 32.97630033087389 ] } },
{ "type": "Feature", "properties": { "gid": 178, "area": 0.0, "perimeter": 0.0, "name": "信阳市", "pname": "河南", "pcode": "410000" }, "geometry": { "type": "Point", "coordinates": [ 114.06975447178192, 32.131219482166664 ] } },
{ "type": "Feature", "properties": { "gid": 179, "area": 0.0, "perimeter": 0.0, "name": "阜阳市", "pname": "安徽", "pcode": "340000" }, "geometry": { "type": "Point", "coordinates": [ 115.8095764891806, 32.903170672851971 ] } },
{ "type": "Feature", "properties": { "gid": 180, "area": 0.0, "perimeter": 0.0, "name": "蚌埠市", "pname": "安徽", "pcode": "340000" }, "geometry": { "type": "Point", "coordinates": [ 117.363238817982179, 32.941342381485136 ] } },
{ "type": "Feature", "properties": { "gid": 181, "area": 0.0, "perimeter": 0.0, "name": "淮南市", "pname": "安徽", "pcode": "340000" }, "geometry": { "type": "Point", "coordinates": [ 117.022337461744073, 32.618840483827171 ] } },
{ "type": "Feature", "properties": { "gid": 182, "area": 0.0, "perimeter": 0.0, "name": "滁州市", "pname": "安徽", "pcode": "340000" }, "geometry": { "type": "Point", "coordinates": [ 118.30478971981438, 32.317080257062308 ] } },
{ "type": "Feature", "properties": { "gid": 183, "area": 0.0, "perimeter": 0.0, "name": "泰州市", "pname": "江苏", "pcode": "320000" }, "geometry": { "type": "Point", "coordinates": [ 119.911913516921487, 32.495954640540639 ] } },
{ "type": "Feature", "properties": { "gid": 184, "area": 0.0, "perimeter": 0.0, "name": "扬州市", "pname": "江苏", "pcode": "320000" }, "geometry": { "type": "Point", "coordinates": [ 119.437850255110703, 32.391352414611404 ] } },
{ "type": "Feature", "properties": { "gid": 185, "area": 0.0, "perimeter": 0.0, "name": "镇江市", "pname": "江苏", "pcode": "320000" }, "geometry": { "type": "Point", "coordinates": [ 119.444949103773411, 32.206567536663258 ] } },
{ "type": "Feature", "properties": { "gid": 186, "area": 0.0, "perimeter": 0.0, "name": "盐城市", "pname": "江苏", "pcode": "320000" }, "geometry": { "type": "Point", "coordinates": [ 120.134406201296841, 33.385266621246608 ] } },
{ "type": "Feature", "properties": { "gid": 187, "area": 0.0, "perimeter": 0.0, "name": "南通市", "pname": "江苏", "pcode": "320000" }, "geometry": { "type": "Point", "coordinates": [ 120.855334547305119, 32.010535882121452 ] } },
{ "type": "Feature", "properties": { "gid": 188, "area": 0.0, "perimeter": 0.0, "name": "喀什市", "pname": "新疆", "pcode": "650000" }, "geometry": { "type": "Point", "coordinates": [ 75.985997390662078, 39.466729358127495 ] } },
{ "type": "Feature", "properties": { "gid": 189, "area": 0.0, "perimeter": 0.0, "name": "和田市", "pname": "新疆", "pcode": "650000" }, "geometry": { "type": "Point", "coordinates": [ 79.927614207639536, 37.106166360348915 ] } },
{ "type": "Feature", "properties": { "gid": 190, "area": 0.0, "perimeter": 0.0, "name": "嘉峪关市", "pname": "甘肃", "pcode": "620000" }, "geometry": { "type": "Point", "coordinates": [ 98.272995844950458, 39.802800503280565 ] } },
{ "type": "Feature", "properties": { "gid": 191, "area": 0.0, "perimeter": 0.0, "name": "酒泉市", "pname": "甘肃", "pcode": "620000" }, "geometry": { "type": "Point", "coordinates": [ 98.511337306123522, 39.745288778883662 ] } },
{ "type": "Feature", "properties": { "gid": 192, "area": 0.0, "perimeter": 0.0, "name": "张掖市", "pname": "甘肃", "pcode": "620000" }, "geometry": { "type": "Point", "coordinates": [ 100.450063778603777, 38.933435840151851 ] } },
{ "type": "Feature", "properties": { "gid": 193, "area": 0.0, "perimeter": 0.0, "name": "德令哈市", "pname": "青海", "pcode": "630000" }, "geometry": { "type": "Point", "coordinates": [ 97.356018269263672, 37.368938615329412 ] } },
{ "type": "Feature", "properties": { "gid": 194, "area": 0.0, "perimeter": 0.0, "name": "乌海市", "pname": "内蒙古", "pcode": "150000" }, "geometry": { "type": "Point", "coordinates": [ 106.818364390587021, 39.672044437978904 ] } },
{ "type": "Feature", "properties": { "gid": 195, "area": 0.0, "perimeter": 0.0, "name": "石嘴山市", "pname": "宁夏", "pcode": "640000" }, "geometry": { "type": "Point", "coordinates": [ 106.380007744079862, 39.021977246765715 ] } },
{ "type": "Feature", "properties": { "gid": 196, "area": 0.0, "perimeter": 0.0, "name": "金昌市", "pname": "甘肃", "pcode": "620000" }, "geometry": { "type": "Point", "coordinates": [ 102.165635920298428, 38.492145353375285 ] } },
{ "type": "Feature", "properties": { "gid": 197, "area": 0.0, "perimeter": 0.0, "name": "武威市", "pname": "甘肃", "pcode": "620000" }, "geometry": { "type": "Point", "coordinates": [ 102.634908775488498, 37.927210175300637 ] } },
{ "type": "Feature", "properties": { "gid": 198, "area": 0.0, "perimeter": 0.0, "name": "白银市", "pname": "甘肃", "pcode": "620000" }, "geometry": { "type": "Point", "coordinates": [ 104.174441171666501, 36.546516522421548 ] } },
{ "type": "Feature", "properties": { "gid": 199, "area": 0.0, "perimeter": 0.0, "name": "东胜市", "pname": "内蒙古", "pcode": "150000" }, "geometry": { "type": "Point", "coordinates": [ 110.001073376507193, 39.816599493963253 ] } },
{ "type": "Feature", "properties": { "gid": 200, "area": 0.0, "perimeter": 0.0, "name": "朔州市", "pname": "山西", "pcode": "140000" }, "geometry": { "type": "Point", "coordinates": [ 112.42203346194384, 39.30836606525996 ] } },
{ "type": "Feature", "properties": { "gid": 201, "area": 0.0, "perimeter": 0.0, "name": "榆林市", "pname": "陕西", "pcode": "610000" }, "geometry": { "type": "Point", "coordinates": [ 109.754296548646295, 38.294990848405284 ] } },
{ "type": "Feature", "properties": { "gid": 202, "area": 0.0, "perimeter": 0.0, "name": "忻州市", "pname": "山西", "pcode": "140000" }, "geometry": { "type": "Point", "coordinates": [ 112.73171616048603, 38.398836643974334 ] } },
{ "type": "Feature", "properties": { "gid": 203, "area": 0.0, "perimeter": 0.0, "name": "榆次区", "pname": "山西", "pcode": "140000" }, "geometry": { "type": "Point", "coordinates": [ 112.745191526783131, 37.678721482110163 ] } },
{ "type": "Feature", "properties": { "gid": 204, "area": 0.0, "perimeter": 0.0, "name": "阳泉市", "pname": "山西", "pcode": "140000" }, "geometry": { "type": "Point", "coordinates": [ 113.573387124652911, 37.861343639707798 ] } },
{ "type": "Feature", "properties": { "gid": 205, "area": 0.0, "perimeter": 0.0, "name": "延安市", "pname": "陕西", "pcode": "610000" }, "geometry": { "type": "Point", "coordinates": [ 109.470318640200588, 36.592046094719805 ] } },
{ "type": "Feature", "properties": { "gid": 206, "area": 0.0, "perimeter": 0.0, "name": "临汾市", "pname": "山西", "pcode": "140000" }, "geometry": { "type": "Point", "coordinates": [ 111.515895478749911, 36.078253785965643 ] } },
{ "type": "Feature", "properties": { "gid": 207, "area": 0.0, "perimeter": 0.0, "name": "长治市", "pname": "山西", "pcode": "140000" }, "geometry": { "type": "Point", "coordinates": [ 113.104001961980572, 36.183750130138158 ] } },
{ "type": "Feature", "properties": { "gid": 208, "area": 0.0, "perimeter": 0.0, "name": "廊坊市", "pname": "河北", "pcode": "130000" }, "geometry": { "type": "Point", "coordinates": [ 116.692762402786585, 39.519257363490205 ] } },
{ "type": "Feature", "properties": { "gid": 209, "area": 0.0, "perimeter": 0.0, "name": "唐山市", "pname": "河北", "pcode": "130000" }, "geometry": { "type": "Point", "coordinates": [ 118.193067347420907, 39.620913407086569 ] } },
{ "type": "Feature", "properties": { "gid": 210, "area": 0.0, "perimeter": 0.0, "name": "秦皇岛市", "pname": "河北", "pcode": "130000" }, "geometry": { "type": "Point", "coordinates": [ 119.596371304615957, 39.926114656146872 ] } },
{ "type": "Feature", "properties": { "gid": 211, "area": 0.0, "perimeter": 0.0, "name": "保定市", "pname": "河北", "pcode": "130000" }, "geometry": { "type": "Point", "coordinates": [ 115.502691551981187, 38.855973441002078 ] } },
{ "type": "Feature", "properties": { "gid": 212, "area": 0.0, "perimeter": 0.0, "name": "沧州市", "pname": "河北", "pcode": "130000" }, "geometry": { "type": "Point", "coordinates": [ 116.862606499671301, 38.309252977784929 ] } },
{ "type": "Feature", "properties": { "gid": 213, "area": 0.0, "perimeter": 0.0, "name": "邢台市", "pname": "河北", "pcode": "130000" }, "geometry": { "type": "Point", "coordinates": [ 114.494818131756105, 37.066587341287992 ] } },
{ "type": "Feature", "properties": { "gid": 214, "area": 0.0, "perimeter": 0.0, "name": "衡水市", "pname": "河北", "pcode": "130000" }, "geometry": { "type": "Point", "coordinates": [ 115.706328187990408, 37.726403805125955 ] } },
{ "type": "Feature", "properties": { "gid": 215, "area": 0.0, "perimeter": 0.0, "name": "德州市", "pname": "山东", "pcode": "370000" }, "geometry": { "type": "Point", "coordinates": [ 116.288022712577941, 37.451876620554692 ] } },
{ "type": "Feature", "properties": { "gid": 216, "area": 0.0, "perimeter": 0.0, "name": "东营市", "pname": "山东", "pcode": "370000" }, "geometry": { "type": "Point", "coordinates": [ 118.495885649314971, 37.460027797365399 ] } },
{ "type": "Feature", "properties": { "gid": 217, "area": 0.0, "perimeter": 0.0, "name": "邯郸市", "pname": "河北", "pcode": "130000" }, "geometry": { "type": "Point", "coordinates": [ 114.472594069825533, 36.593692924848867 ] } },
{ "type": "Feature", "properties": { "gid": 218, "area": 0.0, "perimeter": 0.0, "name": "安阳市", "pname": "河南", "pcode": "410000" }, "geometry": { "type": "Point", "coordinates": [ 114.346046964604213, 36.098548371100087 ] } },
{ "type": "Feature", "properties": { "gid": 219, "area": 0.0, "perimeter": 0.0, "name": "聊城市", "pname": "山东", "pcode": "370000" }, "geometry": { "type": "Point", "coordinates": [ 115.989286258423817, 36.447945760138197 ] } },
{ "type": "Feature", "properties": { "gid": 220, "area": 0.0, "perimeter": 0.0, "name": "泰安市", "pname": "山东", "pcode": "370000" }, "geometry": { "type": "Point", "coordinates": [ 117.127816360852307, 36.189193135890974 ] } },
{ "type": "Feature", "properties": { "gid": 221, "area": 0.0, "perimeter": 0.0, "name": "潍坊市", "pname": "山东", "pcode": "370000" }, "geometry": { "type": "Point", "coordinates": [ 119.107186026912061, 36.702901653456273 ] } },
{ "type": "Feature", "properties": { "gid": 222, "area": 0.0, "perimeter": 0.0, "name": "淄博市", "pname": "山东", "pcode": "370000" }, "geometry": { "type": "Point", "coordinates": [ 118.059037484950252, 36.792250892697872 ] } },
{ "type": "Feature", "properties": { "gid": 223, "area": 0.0, "perimeter": 0.0, "name": "大连市", "pname": "辽宁", "pcode": "210000" }, "geometry": { "type": "Point", "coordinates": [ 121.5910973609422, 38.91242391773325 ] } },
{ "type": "Feature", "properties": { "gid": 224, "area": 0.0, "perimeter": 0.0, "name": "青岛市", "pname": "山东", "pcode": "370000" }, "geometry": { "type": "Point", "coordinates": [ 120.347454669053747, 36.078767234442708 ] } },
{ "type": "Feature", "properties": { "gid": 225, "area": 0.0, "perimeter": 0.0, "name": "威海市", "pname": "山东", "pcode": "370000" }, "geometry": { "type": "Point", "coordinates": [ 122.109036755053779, 37.501117639179562 ] } },
{ "type": "Feature", "properties": { "gid": 226, "area": 0.0, "perimeter": 0.0, "name": "烟台市", "pname": null, "pcode": null }, "geometry": { "type": "Point", "coordinates": [ 121.380057001016738, 37.534212215552799 ] } },
{ "type": "Feature", "properties": { "gid": 227, "area": 0.0, "perimeter": 0.0, "name": "伊宁市", "pname": "新疆", "pcode": "650000" }, "geometry": { "type": "Point", "coordinates": [ 81.319499428274341, 43.915787634586216 ] } },
{ "type": "Feature", "properties": { "gid": 228, "area": 0.0, "perimeter": 0.0, "name": "吐鲁番市", "pname": "新疆", "pcode": "650000" }, "geometry": { "type": "Point", "coordinates": [ 89.180954404061353, 42.940727263040841 ] } },
{ "type": "Feature", "properties": { "gid": 229, "area": 0.0, "perimeter": 0.0, "name": "哈密市", "pname": "新疆", "pcode": "650000" }, "geometry": { "type": "Point", "coordinates": [ 93.518646037847503, 42.819490675914857 ] } },
{ "type": "Feature", "properties": { "gid": 230, "area": 0.0, "perimeter": 0.0, "name": "临河市", "pname": "内蒙古", "pcode": "150000" }, "geometry": { "type": "Point", "coordinates": [ 107.397428169267172, 40.761522752397248 ] } },
{ "type": "Feature", "properties": { "gid": 231, "area": 0.0, "perimeter": 0.0, "name": "集宁市", "pname": "内蒙古", "pcode": "150000" }, "geometry": { "type": "Point", "coordinates": [ 113.096797386516357, 41.028959173629744 ] } },
{ "type": "Feature", "properties": { "gid": 232, "area": 0.0, "perimeter": 0.0, "name": "包头市", "pname": "内蒙古", "pcode": "150000" }, "geometry": { "type": "Point", "coordinates": [ 109.749201089852605, 40.660761833804877 ] } },
{ "type": "Feature", "properties": { "gid": 233, "area": 0.0, "perimeter": 0.0, "name": "大同市", "pname": "山西", "pcode": "140000" }, "geometry": { "type": "Point", "coordinates": [ 113.296935884582126, 40.093153730161411 ] } },
{ "type": "Feature", "properties": { "gid": 234, "area": 0.0, "perimeter": 0.0, "name": "赤峰市", "pname": "内蒙古", "pcode": "150000" }, "geometry": { "type": "Point", "coordinates": [ 118.953188389992675, 42.269330345004725 ] } },
{ "type": "Feature", "properties": { "gid": 235, "area": 0.0, "perimeter": 0.0, "name": "张家口市", "pname": "河北", "pcode": "130000" }, "geometry": { "type": "Point", "coordinates": [ 114.886540014120229, 40.791582085123487 ] } },
{ "type": "Feature", "properties": { "gid": 236, "area": 0.0, "perimeter": 0.0, "name": "承德市", "pname": "河北", "pcode": "130000" }, "geometry": { "type": "Point", "coordinates": [ 117.920542994362052, 40.966107579736253 ] } },
{ "type": "Feature", "properties": { "gid": 237, "area": 0.0, "perimeter": 0.0, "name": "通辽市", "pname": "内蒙古", "pcode": "150000" }, "geometry": { "type": "Point", "coordinates": [ 122.261375383320058, 43.611209896981357 ] } },
{ "type": "Feature", "properties": { "gid": 238, "area": 0.0, "perimeter": 0.0, "name": "四平市", "pname": "吉林", "pcode": "220000" }, "geometry": { "type": "Point", "coordinates": [ 124.376321665310371, 43.167395641473469 ] } },
{ "type": "Feature", "properties": { "gid": 239, "area": 0.0, "perimeter": 0.0, "name": "阜新市", "pname": "辽宁", "pcode": "210000" }, "geometry": { "type": "Point", "coordinates": [ 121.648935611570153, 42.009600549604578 ] } },
{ "type": "Feature", "properties": { "gid": 240, "area": 0.0, "perimeter": 0.0, "name": "铁岭市", "pname": "辽宁", "pcode": "210000" }, "geometry": { "type": "Point", "coordinates": [ 123.848733726391146, 42.295815366110375 ] } },
{ "type": "Feature", "properties": { "gid": 241, "area": 0.0, "perimeter": 0.0, "name": "辽源市", "pname": "吉林", "pcode": "220000" }, "geometry": { "type": "Point", "coordinates": [ 125.137859987699386, 42.910833246513334 ] } },
{ "type": "Feature", "properties": { "gid": 242, "area": 0.0, "perimeter": 0.0, "name": "朝阳市", "pname": "辽宁", "pcode": "210000" }, "geometry": { "type": "Point", "coordinates": [ 120.451554999011464, 41.580395059665797 ] } },
{ "type": "Feature", "properties": { "gid": 243, "area": 0.0, "perimeter": 0.0, "name": "锦州市", "pname": "辽宁", "pcode": "210000" }, "geometry": { "type": "Point", "coordinates": [ 121.136099495195893, 41.113154630910905 ] } },
{ "type": "Feature", "properties": { "gid": 244, "area": 0.0, "perimeter": 0.0, "name": "盘锦市", "pname": "辽宁", "pcode": "210000" }, "geometry": { "type": "Point", "coordinates": [ 122.071416760934341, 41.121143311637205 ] } },
{ "type": "Feature", "properties": { "gid": 245, "area": 0.0, "perimeter": 0.0, "name": "抚顺市", "pname": "辽宁", "pcode": "210000" }, "geometry": { "type": "Point", "coordinates": [ 123.789725813746486, 41.846311720170796 ] } },
{ "type": "Feature", "properties": { "gid": 246, "area": 0.0, "perimeter": 0.0, "name": "本溪市", "pname": "辽宁", "pcode": "210000" }, "geometry": { "type": "Point", "coordinates": [ 123.764527618222317, 41.290394148387541 ] } },
{ "type": "Feature", "properties": { "gid": 247, "area": 0.0, "perimeter": 0.0, "name": "辽阳市", "pname": "辽宁", "pcode": "210000" }, "geometry": { "type": "Point", "coordinates": [ 123.1688302355346, 41.266135990105788 ] } },
{ "type": "Feature", "properties": { "gid": 248, "area": 0.0, "perimeter": 0.0, "name": "鞍山市", "pname": "辽宁", "pcode": "210000" }, "geometry": { "type": "Point", "coordinates": [ 123.02159496282502, 41.185279060668151 ] } },
{ "type": "Feature", "properties": { "gid": 249, "area": 0.0, "perimeter": 0.0, "name": "通化市", "pname": "吉林", "pcode": "220000" }, "geometry": { "type": "Point", "coordinates": [ 125.922064850879465, 41.723805905308929 ] } },
{ "type": "Feature", "properties": { "gid": 250, "area": 0.0, "perimeter": 0.0, "name": "葫芦岛市", "pname": "辽宁", "pcode": "210000" }, "geometry": { "type": "Point", "coordinates": [ 120.84971694268522, 40.756290573226636 ] } },
{ "type": "Feature", "properties": { "gid": 251, "area": 0.0, "perimeter": 0.0, "name": "营口市", "pname": "辽宁", "pcode": "210000" }, "geometry": { "type": "Point", "coordinates": [ 122.228475729815571, 40.669013864396554 ] } },
{ "type": "Feature", "properties": { "gid": 252, "area": 0.0, "perimeter": 0.0, "name": "丹东市", "pname": null, "pcode": null }, "geometry": { "type": "Point", "coordinates": [ 124.384550121196924, 40.135746834859738 ] } },
{ "type": "Feature", "properties": { "gid": 253, "area": 0.0, "perimeter": 0.0, "name": "吉林市", "pname": "吉林", "pcode": "220000" }, "geometry": { "type": "Point", "coordinates": [ 126.567057103360114, 43.908072420086157 ] } },
{ "type": "Feature", "properties": { "gid": 254, "area": 0.0, "perimeter": 0.0, "name": "延吉市", "pname": "吉林", "pcode": "220000" }, "geometry": { "type": "Point", "coordinates": [ 129.511233673480888, 42.910548333306302 ] } },
{ "type": "Feature", "properties": { "gid": 255, "area": 0.0, "perimeter": 0.0, "name": "白山市", "pname": "吉林", "pcode": "220000" }, "geometry": { "type": "Point", "coordinates": [ 126.421601886692983, 41.92662274352768 ] } },
{ "type": "Feature", "properties": { "gid": 256, "area": 0.0, "perimeter": 0.0, "name": "阿勒泰市", "pname": "新疆", "pcode": "650000" }, "geometry": { "type": "Point", "coordinates": [ 88.142346112502366, 47.853592134729993 ] } },
{ "type": "Feature", "properties": { "gid": 257, "area": 0.0, "perimeter": 0.0, "name": "克拉玛依市", "pname": "新疆", "pcode": "650000" }, "geometry": { "type": "Point", "coordinates": [ 84.864329221607576, 45.591412465224764 ] } },
{ "type": "Feature", "properties": { "gid": 258, "area": 0.0, "perimeter": 0.0, "name": "奎屯市", "pname": "新疆", "pcode": "650000" }, "geometry": { "type": "Point", "coordinates": [ 84.895907893691032, 44.423822235387156 ] } },
{ "type": "Feature", "properties": { "gid": 259, "area": 0.0, "perimeter": 0.0, "name": "石河子市", "pname": "新疆", "pcode": "650000" }, "geometry": { "type": "Point", "coordinates": [ 86.033443688582423, 44.293653327280836 ] } },
{ "type": "Feature", "properties": { "gid": 260, "area": 0.0, "perimeter": 0.0, "name": "昌吉市", "pname": "新疆", "pcode": "650000" }, "geometry": { "type": "Point", "coordinates": [ 87.30692569668048, 44.018330555767477 ] } },
{ "type": "Feature", "properties": { "gid": 261, "area": 0.0, "perimeter": 0.0, "name": "齐齐哈尔市", "pname": "黑龙江", "pcode": "230000" }, "geometry": { "type": "Point", "coordinates": [ 123.964808107824979, 47.345425157422966 ] } },
{ "type": "Feature", "properties": { "gid": 262, "area": 0.0, "perimeter": 0.0, "name": "乌兰浩特市", "pname": "内蒙古", "pcode": "150000" }, "geometry": { "type": "Point", "coordinates": [ 122.070036452238014, 46.06361055066332 ] } },
{ "type": "Feature", "properties": { "gid": 263, "area": 0.0, "perimeter": 0.0, "name": "大庆市", "pname": "黑龙江", "pcode": "230000" }, "geometry": { "type": "Point", "coordinates": [ 125.026127539894489, 46.592568094736976 ] } },
{ "type": "Feature", "properties": { "gid": 264, "area": 0.0, "perimeter": 0.0, "name": "白城市", "pname": "吉林", "pcode": "220000" }, "geometry": { "type": "Point", "coordinates": [ 122.842083291334205, 45.612684520631547 ] } },
{ "type": "Feature", "properties": { "gid": 265, "area": 0.0, "perimeter": 0.0, "name": "松原市", "pname": "吉林", "pcode": "220000" }, "geometry": { "type": "Point", "coordinates": [ 124.822996587042113, 45.172972732901336 ] } },
{ "type": "Feature", "properties": { "gid": 266, "area": 0.0, "perimeter": 0.0, "name": "鹤岗市", "pname": "黑龙江", "pcode": "230000" }, "geometry": { "type": "Point", "coordinates": [ 130.293501900992283, 47.346064311433366 ] } },
{ "type": "Feature", "properties": { "gid": 267, "area": 0.0, "perimeter": 0.0, "name": "伊春市", "pname": "黑龙江", "pcode": "230000" }, "geometry": { "type": "Point", "coordinates": [ 128.904998575062081, 47.722910870128409 ] } },
{ "type": "Feature", "properties": { "gid": 268, "area": 0.0, "perimeter": 0.0, "name": "牡丹江市", "pname": "黑龙江", "pcode": "230000" }, "geometry": { "type": "Point", "coordinates": [ 129.596895817628905, 44.580954917846988 ] } },
{ "type": "Feature", "properties": { "gid": 269, "area": 0.0, "perimeter": 0.0, "name": "绥化市", "pname": "黑龙江", "pcode": "230000" }, "geometry": { "type": "Point", "coordinates": [ 126.982788212428218, 46.63795376362139 ] } },
{ "type": "Feature", "properties": { "gid": 270, "area": 0.0, "perimeter": 0.0, "name": "佳木斯市", "pname": "黑龙江", "pcode": "230000" }, "geometry": { "type": "Point", "coordinates": [ 130.365762410756986, 46.809552232680375 ] } },
{ "type": "Feature", "properties": { "gid": 271, "area": 0.0, "perimeter": 0.0, "name": "双鸭山市", "pname": "黑龙江", "pcode": "230000" }, "geometry": { "type": "Point", "coordinates": [ 131.157071713336791, 46.637776247245966 ] } },
{ "type": "Feature", "properties": { "gid": 272, "area": 0.0, "perimeter": 0.0, "name": "七台河市", "pname": "黑龙江", "pcode": "230000" }, "geometry": { "type": "Point", "coordinates": [ 130.878936257936317, 45.807387950933126 ] } },
{ "type": "Feature", "properties": { "gid": 273, "area": 0.0, "perimeter": 0.0, "name": "鸡西市", "pname": "黑龙江", "pcode": "230000" }, "geometry": { "type": "Point", "coordinates": [ 130.951847976808949, 45.296316403545696 ] } },
{ "type": "Feature", "properties": { "gid": 274, "area": 0.0, "perimeter": 0.0, "name": "海拉尔市", "pname": "内蒙古", "pcode": "150000" }, "geometry": { "type": "Point", "coordinates": [ 119.731982546341541, 49.207221621054366 ] } },
{ "type": "Feature", "properties": { "gid": 275, "area": 0.0, "perimeter": 0.0, "name": "黑河市", "pname": "黑龙江", "pcode": "230000" }, "geometry": { "type": "Point", "coordinates": [ 127.48458137774459, 50.242349928438713 ] } },
{ "type": "Feature", "properties": { "gid": 276, "area": 0.0, "perimeter": 0.0, "name": "泽当", "pname": "西藏", "pcode": "540000" }, "geometry": { "type": "Point", "coordinates": [ 91.780442895663072, 29.242469181562242 ] } },
{ "type": "Feature", "properties": { "gid": 277, "area": 0.0, "perimeter": 0.0, "name": "文山县", "pname": "云南", "pcode": "530000" }, "geometry": { "type": "Point", "coordinates": [ 104.23577158195863, 23.376016679710386 ] } },
{ "type": "Feature", "properties": { "gid": 278, "area": 0.0, "perimeter": 0.0, "name": "潮州市", "pname": "广东", "pcode": "440000" }, "geometry": { "type": "Point", "coordinates": [ 116.637200132009241, 23.667569212729724 ] } },
{ "type": "Feature", "properties": { "gid": 279, "area": 0.0, "perimeter": 0.0, "name": "那曲县", "pname": "西藏", "pcode": "540000" }, "geometry": { "type": "Point", "coordinates": [ 92.056136131723775, 31.48031004392632 ] } },
{ "type": "Feature", "properties": { "gid": 280, "area": 0.0, "perimeter": 0.0, "name": "玛沁县", "pname": "青海", "pcode": "630000" }, "geometry": { "type": "Point", "coordinates": [ 100.246319713065574, 34.474226710398952 ] } },
{ "type": "Feature", "properties": { "gid": 281, "area": 0.0, "perimeter": 0.0, "name": "合作市", "pname": "甘肃", "pcode": "620000" }, "geometry": { "type": "Point", "coordinates": [ 102.902008910867508, 34.989011232408409 ] } },
{ "type": "Feature", "properties": { "gid": 282, "area": 0.0, "perimeter": 0.0, "name": "同仁县", "pname": "青海", "pcode": "630000" }, "geometry": { "type": "Point", "coordinates": [ 102.009073770484136, 35.511686069701334 ] } },
{ "type": "Feature", "properties": { "gid": 283, "area": 0.0, "perimeter": 0.0, "name": "定西县", "pname": "甘肃", "pcode": "620000" }, "geometry": { "type": "Point", "coordinates": [ 104.620571287626163, 35.575315997560217 ] } },
{ "type": "Feature", "properties": { "gid": 284, "area": 0.0, "perimeter": 0.0, "name": "固原县", "pname": "宁夏", "pcode": "640000" }, "geometry": { "type": "Point", "coordinates": [ 106.278411844257718, 36.014327044475003 ] } },
{ "type": "Feature", "properties": { "gid": 285, "area": 0.0, "perimeter": 0.0, "name": "莱芜市", "pname": "山东", "pcode": "370000" }, "geometry": { "type": "Point", "coordinates": [ 117.662371464964465, 36.205307727096361 ] } },
{ "type": "Feature", "properties": { "gid": 286, "area": 0.0, "perimeter": 0.0, "name": "门源回族自治县", "pname": "青海", "pcode": "630000" }, "geometry": { "type": "Point", "coordinates": [ 101.615276238155204, 37.374294753858017 ] } },
{ "type": "Feature", "properties": { "gid": 287, "area": 0.0, "perimeter": 0.0, "name": "平安县", "pname": "青海", "pcode": "630000" }, "geometry": { "type": "Point", "coordinates": [ 102.104948953693238, 36.497365995511885 ] } },
{ "type": "Feature", "properties": { "gid": 288, "area": 0.0, "perimeter": 0.0, "name": "共和县", "pname": "青海", "pcode": "630000" }, "geometry": { "type": "Point", "coordinates": [ 100.616403758559272, 36.280340110820767 ] } },
{ "type": "Feature", "properties": { "gid": 289, "area": 0.0, "perimeter": 0.0, "name": "离石市", "pname": "山西", "pcode": "140000" }, "geometry": { "type": "Point", "coordinates": [ 111.135642997513045, 37.510361639743714 ] } },
{ "type": "Feature", "properties": { "gid": 290, "area": 0.0, "perimeter": 0.0, "name": "阿拉善左旗", "pname": "内蒙古", "pcode": "150000" }, "geometry": { "type": "Point", "coordinates": [ 105.665874987093986, 38.842156337480638 ] } },
{ "type": "Feature", "properties": { "gid": 291, "area": 0.0, "perimeter": 0.0, "name": "库尔勒市", "pname": "新疆", "pcode": "650000" }, "geometry": { "type": "Point", "coordinates": [ 86.135946345653721, 41.757182715812732 ] } },
{ "type": "Feature", "properties": { "gid": 292, "area": 0.0, "perimeter": 0.0, "name": "锡林浩特市", "pname": "内蒙古", "pcode": "150000" }, "geometry": { "type": "Point", "coordinates": [ 116.069878413932045, 43.945651603855659 ] } },
{ "type": "Feature", "properties": { "gid": 293, "area": 0.0, "perimeter": 0.0, "name": "塔城市", "pname": "新疆", "pcode": "650000" }, "geometry": { "type": "Point", "coordinates": [ 82.984747001286948, 46.748780402369498 ] } },
{ "type": "Feature", "properties": { "gid": 294, "area": 0.0, "perimeter": 0.0, "name": "博乐市", "pname": "新疆", "pcode": "650000" }, "geometry": { "type": "Point", "coordinates": [ 82.072736225557335, 44.907100423830542 ] } },
{ "type": "Feature", "properties": { "gid": 295, "area": 0.0, "perimeter": 0.0, "name": "阿克苏市", "pname": "新疆", "pcode": "650000" }, "geometry": { "type": "Point", "coordinates": [ 80.260329215353991, 41.167226369826167 ] } },
{ "type": "Feature", "properties": { "gid": 296, "area": 0.0, "perimeter": 0.0, "name": "阿图什市", "pname": "新疆", "pcode": "650000" }, "geometry": { "type": "Point", "coordinates": [ 76.167832599761908, 39.715718800686304 ] } },
{ "type": "Feature", "properties": { "gid": 297, "area": 0.0, "perimeter": 0.0, "name": "噶尔县", "pname": "西藏", "pcode": "540000" }, "geometry": { "type": "Point", "coordinates": [ 80.089769609330304, 32.504285999245901 ] } },
{ "type": "Feature", "properties": { "gid": 298, "area": 0.0, "perimeter": 0.0, "name": "康定县", "pname": "四川", "pcode": "510000" }, "geometry": { "type": "Point", "coordinates": [ 101.958661464386253, 30.052621653997551 ] } },
{ "type": "Feature", "properties": { "gid": 299, "area": 0.0, "perimeter": 0.0, "name": "马尔康县", "pname": "四川", "pcode": "510000" }, "geometry": { "type": "Point", "coordinates": [ 102.233972657873366, 31.911134085612638 ] } },
{ "type": "Feature", "properties": { "gid": 300, "area": 0.0, "perimeter": 0.0, "name": "毕节", "pname": "贵州", "pcode": "520000" }, "geometry": { "type": "Point", "coordinates": [ 105.284257210851052, 27.308074779288518 ] } },
{ "type": "Feature", "properties": { "gid": 301, "area": 0.0, "perimeter": 0.0, "name": "玉树", "pname": "青海", "pcode": "630000" }, "geometry": { "type": "Point", "coordinates": [ 97.015307984709239, 33.003385000093921 ] } },
{ "type": "Feature", "properties": { "gid": 1, "area": 0.0, "perimeter": 0.0, "name": "三亚市", "pname": "海南", "pcode": "460000" }, "geometry": { "type": "Point", "coordinates": [ 109.513606827795101, 18.237653675518281 ] } },
{ "type": "Feature", "properties": { "gid": 2, "area": 0.0, "perimeter": 0.0, "name": "临沧", "pname": "云南", "pcode": "530000" }, "geometry": { "type": "Point", "coordinates": [ 100.088342815719372, 23.879930286946074 ] } },
{ "type": "Feature", "properties": { "gid": 3, "area": 0.0, "perimeter": 0.0, "name": "思茅市", "pname": "云南", "pcode": "530000" }, "geometry": { "type": "Point", "coordinates": [ 100.975565229365372, 22.793303029522679 ] } },
{ "type": "Feature", "properties": { "gid": 4, "area": 0.0, "perimeter": 0.0, "name": "景洪市", "pname": "云南", "pcode": "530000" }, "geometry": { "type": "Point", "coordinates": [ 100.794189736488164, 22.012789250896212 ] } },
{ "type": "Feature", "properties": { "gid": 5, "area": 0.0, "perimeter": 0.0, "name": "个旧市", "pname": "云南", "pcode": "530000" }, "geometry": { "type": "Point", "coordinates": [ 103.155733207040441, 23.357069580932862 ] } },
{ "type": "Feature", "properties": { "gid": 6, "area": 0.0, "perimeter": 0.0, "name": "百色市", "pname": "广西", "pcode": "450000" }, "geometry": { "type": "Point", "coordinates": [ 106.611964798901468, 23.904435534307797 ] } },
{ "type": "Feature", "properties": { "gid": 7, "area": 0.0, "perimeter": 0.0, "name": "贵港市", "pname": "广西", "pcode": "450000" }, "geometry": { "type": "Point", "coordinates": [ 109.608800493950866, 23.098960030513865 ] } },
{ "type": "Feature", "properties": { "gid": 8, "area": 0.0, "perimeter": 0.0, "name": "梧州市", "pname": "广西", "pcode": "450000" }, "geometry": { "type": "Point", "coordinates": [ 111.308975164061408, 23.486772533495056 ] } },
{ "type": "Feature", "properties": { "gid": 9, "area": 0.0, "perimeter": 0.0, "name": "肇庆市", "pname": "广东", "pcode": "440000" }, "geometry": { "type": "Point", "coordinates": [ 112.452112909756025, 23.058094769585026 ] } },
{ "type": "Feature", "properties": { "gid": 10, "area": 0.0, "perimeter": 0.0, "name": "清远市", "pname": "广东", "pcode": "440000" }, "geometry": { "type": "Point", "coordinates": [ 113.022579568136209, 23.72060419962266 ] } },
{ "type": "Feature", "properties": { "gid": 11, "area": 0.0, "perimeter": 0.0, "name": "东莞市", "pname": "广东", "pcode": "440000" }, "geometry": { "type": "Point", "coordinates": [ 113.7502856387067, 23.046478765226055 ] } },
{ "type": "Feature", "properties": { "gid": 12, "area": 0.0, "perimeter": 0.0, "name": "佛山市", "pname": "广东", "pcode": "440000" }, "geometry": { "type": "Point", "coordinates": [ 113.116229624576036, 23.03464327832852 ] } },
{ "type": "Feature", "properties": { "gid": 13, "area": 0.0, "perimeter": 0.0, "name": "玉林市", "pname": "广西", "pcode": "450000" }, "geometry": { "type": "Point", "coordinates": [ 110.146253003469383, 22.631948940640743 ] } },
{ "type": "Feature", "properties": { "gid": 14, "area": 0.0, "perimeter": 0.0, "name": "江门市", "pname": "广东", "pcode": "440000" }, "geometry": { "type": "Point", "coordinates": [ 113.086587419598999, 22.589265258189453 ] } },
{ "type": "Feature", "properties": { "gid": 15, "area": 0.0, "perimeter": 0.0, "name": "中山市", "pname": "广东", "pcode": "440000" }, "geometry": { "type": "Point", "coordinates": [ 113.374054437772458, 22.525652724748429 ] } },
{ "type": "Feature", "properties": { "gid": 16, "area": 0.0, "perimeter": 0.0, "name": "珠海市", "pname": "广东", "pcode": "440000" }, "geometry": { "type": "Point", "coordinates": [ 113.571858570515445, 22.27253130127481 ] } },
{ "type": "Feature", "properties": { "gid": 17, "area": 0.0, "perimeter": 0.0, "name": "澳门", "pname": "广东", "pcode": "440000" }, "geometry": { "type": "Point", "coordinates": [ 113.552077837845772, 22.19944737596288 ] } },
{ "type": "Feature", "properties": { "gid": 18, "area": 0.0, "perimeter": 0.0, "name": "钦州市", "pname": "广西", "pcode": "450000" }, "geometry": { "type": "Point", "coordinates": [ 108.614732156855681, 21.951264514482602 ] } },
{ "type": "Feature", "properties": { "gid": 19, "area": 0.0, "perimeter": 0.0, "name": "北海市", "pname": "广西", "pcode": "450000" }, "geometry": { "type": "Point", "coordinates": [ 109.122133995959544, 21.47908045574798 ] } },
{ "type": "Feature", "properties": { "gid": 20, "area": 0.0, "perimeter": 0.0, "name": "茂名市", "pname": "广东", "pcode": "440000" }, "geometry": { "type": "Point", "coordinates": [ 110.893379400889984, 21.672894880430224 ] } },
{ "type": "Feature", "properties": { "gid": 21, "area": 0.0, "perimeter": 0.0, "name": "湛江市", "pname": "广东", "pcode": "440000" }, "geometry": { "type": "Point", "coordinates": [ 110.403015766886284, 21.194725897295204 ] } },
{ "type": "Feature", "properties": { "gid": 22, "area": 0.0, "perimeter": 0.0, "name": "阳江市", "pname": "广东", "pcode": "440000" }, "geometry": { "type": "Point", "coordinates": [ 111.959366771977997, 21.845246994303412 ] } },
{ "type": "Feature", "properties": { "gid": 23, "area": 0.0, "perimeter": 0.0, "name": "河源市", "pname": "广东", "pcode": "440000" }, "geometry": { "type": "Point", "coordinates": [ 114.69195179956894, 23.736705555280032 ] } },
{ "type": "Feature", "properties": { "gid": 24, "area": 0.0, "perimeter": 0.0, "name": "惠州市", "pname": "广东", "pcode": "440000" }, "geometry": { "type": "Point", "coordinates": [ 114.389911851671073, 23.090166030266349 ] } },
{ "type": "Feature", "properties": { "gid": 25, "area": 0.0, "perimeter": 0.0, "name": "揭阳市", "pname": "广东", "pcode": "440000" }, "geometry": { "type": "Point", "coordinates": [ 116.350302499270413, 23.542836865560851 ] } },
{ "type": "Feature", "properties": { "gid": 26, "area": 0.0, "perimeter": 0.0, "name": "汕头市", "pname": null, "pcode": null }, "geometry": { "type": "Point", "coordinates": [ 116.683420039005156, 23.363809930739908 ] } },
{ "type": "Feature", "properties": { "gid": 27, "area": 0.0, "perimeter": 0.0, "name": "深圳市", "pname": "广东", "pcode": "440000" }, "geometry": { "type": "Point", "coordinates": [ 114.111373004859686, 22.55294233928532 ] } },
{ "type": "Feature", "properties": { "gid": 28, "area": 0.0, "perimeter": 0.0, "name": "香港", "pname": "香港", "pcode": "810000" }, "geometry": { "type": "Point", "coordinates": [ 114.162453346015184, 22.276923725780392 ] } },
{ "type": "Feature", "properties": { "gid": 29, "area": 0.0, "perimeter": 0.0, "name": "汕尾市", "pname": null, "pcode": null }, "geometry": { "type": "Point", "coordinates": [ 115.359984914096316, 22.771329419359965 ] } },
{ "type": "Feature", "properties": { "gid": 30, "area": 0.0, "perimeter": 0.0, "name": "嘉义市", "pname": "台湾", "pcode": "710000" }, "geometry": { "type": "Point", "coordinates": [ 120.442042457397804, 23.486639066804624 ] } },
{ "type": "Feature", "properties": { "gid": 31, "area": 0.0, "perimeter": 0.0, "name": "台南市", "pname": "台湾", "pcode": "710000" }, "geometry": { "type": "Point", "coordinates": [ 120.20088438675289, 23.003982395356537 ] } },
{ "type": "Feature", "properties": { "gid": 32, "area": 0.0, "perimeter": 0.0, "name": "屏东市", "pname": "台湾", "pcode": "710000" }, "geometry": { "type": "Point", "coordinates": [ 120.485699752032659, 22.682304857158801 ] } },
{ "type": "Feature", "properties": { "gid": 33, "area": 0.0, "perimeter": 0.0, "name": "高雄市", "pname": "台湾", "pcode": "710000" }, "geometry": { "type": "Point", "coordinates": [ 120.303765169114186, 22.63358629547341 ] } },
{ "type": "Feature", "properties": { "gid": 34, "area": 0.0, "perimeter": 0.0, "name": "香格里拉县", "pname": "云南", "pcode": "530000" }, "geometry": { "type": "Point", "coordinates": [ 99.707008157819459, 27.817251333931779 ] } },
{ "type": "Feature", "properties": { "gid": 35, "area": 0.0, "perimeter": 0.0, "name": "丽江市", "pname": "云南", "pcode": "530000" }, "geometry": { "type": "Point", "coordinates": [ 100.236099649389331, 26.874622413644474 ] } },
{ "type": "Feature", "properties": { "gid": 36, "area": 0.0, "perimeter": 0.0, "name": "攀枝花市", "pname": "四川", "pcode": "510000" }, "geometry": { "type": "Point", "coordinates": [ 101.698298905317756, 26.554460985599825 ] } },
{ "type": "Feature", "properties": { "gid": 37, "area": 0.0, "perimeter": 0.0, "name": "保山市", "pname": "云南", "pcode": "530000" }, "geometry": { "type": "Point", "coordinates": [ 99.166951228534373, 25.112375598446185 ] } },
{ "type": "Feature", "properties": { "gid": 38, "area": 0.0, "perimeter": 0.0, "name": "大理市", "pname": "云南", "pcode": "530000" }, "geometry": { "type": "Point", "coordinates": [ 100.226408081624143, 25.590419308109812 ] } },
{ "type": "Feature", "properties": { "gid": 39, "area": 0.0, "perimeter": 0.0, "name": "楚雄市", "pname": "云南", "pcode": "530000" }, "geometry": { "type": "Point", "coordinates": [ 101.543012743133872, 25.033001429095126 ] } },
{ "type": "Feature", "properties": { "gid": 40, "area": 0.0, "perimeter": 0.0, "name": "潞西市", "pname": "云南", "pcode": "530000" }, "geometry": { "type": "Point", "coordinates": [ 98.588681324216182, 24.441442012735717 ] } },
{ "type": "Feature", "properties": { "gid": 41, "area": 0.0, "perimeter": 0.0, "name": "西昌市", "pname": "四川", "pcode": "510000" }, "geometry": { "type": "Point", "coordinates": [ 102.267126387357607, 27.899830028899974 ] } },
{ "type": "Feature", "properties": { "gid": 302, "area": 0.0, "perimeter": 0.0, "name": "成县", "pname": "甘肃", "pcode": "620000" }, "geometry": { "type": "Point", "coordinates": [ 105.730607621279106, 33.743736218864186 ] } },
{ "type": "Feature", "properties": { "gid": 303, "area": 0.0, "perimeter": 0.0, "name": "吴忠市", "pname": "宁夏", "pcode": "640000" }, "geometry": { "type": "Point", "coordinates": [ 106.195807498803504, 37.986457817257723 ] } },
{ "type": "Feature", "properties": { "gid": 304, "area": 0.0, "perimeter": 0.0, "name": "台州市", "pname": "浙江", "pcode": "330000" }, "geometry": { "type": "Point", "coordinates": [ 121.447818471358531, 28.672453110084955 ] } },
{ "type": "Feature", "properties": { "gid": 305, "area": 0.0, "perimeter": 0.0, "name": "滨州市", "pname": "山东", "pcode": "370000" }, "geometry": { "type": "Point", "coordinates": [ 118.024411498191469, 37.368350082400703 ] } },
{ "type": "Feature", "properties": { "gid": 306, "area": 0.0, "perimeter": 0.0, "name": "资阳市", "pname": "四川", "pcode": "510000" }, "geometry": { "type": "Point", "coordinates": [ 104.650436601372448, 30.122744326446529 ] } },
{ "type": "Feature", "properties": { "gid": 307, "area": 0.0, "perimeter": 0.0, "name": "广州市", "pname": "广东", "pcode": "440000" }, "geometry": { "type": "Point", "coordinates": [ 113.256523498514582, 23.134483590122578 ] } },
{ "type": "Feature", "properties": { "gid": 308, "area": 0.0, "perimeter": 0.0, "name": "南宁市", "pname": "广西", "pcode": "450000" }, "geometry": { "type": "Point", "coordinates": [ 108.312396407470146, 22.806007750574384 ] } },
{ "type": "Feature", "properties": { "gid": 309, "area": 0.0, "perimeter": 0.0, "name": "海口市", "pname": "海南", "pcode": "460000" }, "geometry": { "type": "Point", "coordinates": [ 110.340051351805997, 20.033573218171419 ] } },
{ "type": "Feature", "properties": { "gid": 310, "area": 0.0, "perimeter": 0.0, "name": "贵阳市", "pname": "贵州", "pcode": "520000" }, "geometry": { "type": "Point", "coordinates": [ 106.709403709046413, 26.58074875479727 ] } },
{ "type": "Feature", "properties": { "gid": 311, "area": 0.0, "perimeter": 0.0, "name": "昆明市", "pname": "云南", "pcode": "530000" }, "geometry": { "type": "Point", "coordinates": [ 102.710533910140555, 25.045848467084792 ] } },
{ "type": "Feature", "properties": { "gid": 312, "area": 0.0, "perimeter": 0.0, "name": "福州市", "pname": "福建", "pcode": "350000" }, "geometry": { "type": "Point", "coordinates": [ 119.317737713488839, 26.036488761725249 ] } },
{ "type": "Feature", "properties": { "gid": 313, "area": 0.0, "perimeter": 0.0, "name": "台北市", "pname": "台湾", "pcode": "710000" }, "geometry": { "type": "Point", "coordinates": [ 121.515936341600863, 25.050347287015153 ] } },
{ "type": "Feature", "properties": { "gid": 314, "area": 0.0, "perimeter": 0.0, "name": "拉萨市", "pname": "西藏", "pcode": "540000" }, "geometry": { "type": "Point", "coordinates": [ 91.134336416763517, 29.652417075471188 ] } },
{ "type": "Feature", "properties": { "gid": 315, "area": 0.0, "perimeter": 0.0, "name": "重庆市", "pname": "重庆", "pcode": "500000" }, "geometry": { "type": "Point", "coordinates": [ 106.445244759858952, 29.590457869796598 ] } },
{ "type": "Feature", "properties": { "gid": 316, "area": 0.0, "perimeter": 0.0, "name": "成都市", "pname": "四川", "pcode": "510000" }, "geometry": { "type": "Point", "coordinates": [ 104.07823193786156, 30.65047404761544 ] } },
{ "type": "Feature", "properties": { "gid": 317, "area": 0.0, "perimeter": 0.0, "name": "长沙市", "pname": "湖南", "pcode": "430000" }, "geometry": { "type": "Point", "coordinates": [ 112.978595757508216, 28.198196165225141 ] } },
{ "type": "Feature", "properties": { "gid": 318, "area": 0.0, "perimeter": 0.0, "name": "合肥市", "pname": "安徽", "pcode": "340000" }, "geometry": { "type": "Point", "coordinates": [ 117.277059337654336, 31.86453527819938 ] } },
{ "type": "Feature", "properties": { "gid": 319, "area": 0.0, "perimeter": 0.0, "name": "武汉市", "pname": "湖北", "pcode": "420000" }, "geometry": { "type": "Point", "coordinates": [ 114.274931621563027, 30.585110033358784 ] } },
{ "type": "Feature", "properties": { "gid": 320, "area": 0.0, "perimeter": 0.0, "name": "南昌市", "pname": "江西", "pcode": "360000" }, "geometry": { "type": "Point", "coordinates": [ 115.898264532235714, 28.674896202832088 ] } },
{ "type": "Feature", "properties": { "gid": 321, "area": 0.0, "perimeter": 0.0, "name": "上海市", "pname": "上海", "pcode": "310000" }, "geometry": { "type": "Point", "coordinates": [ 121.460044317499865, 31.230182301444302 ] } },
{ "type": "Feature", "properties": { "gid": 322, "area": 0.0, "perimeter": 0.0, "name": "杭州市", "pname": "浙江", "pcode": "330000" }, "geometry": { "type": "Point", "coordinates": [ 120.169284588638078, 30.294148716798709 ] } },
{ "type": "Feature", "properties": { "gid": 323, "area": 0.0, "perimeter": 0.0, "name": "西安市", "pname": "陕西", "pcode": "610000" }, "geometry": { "type": "Point", "coordinates": [ 108.944592015041422, 34.266781786379724 ] } },
{ "type": "Feature", "properties": { "gid": 324, "area": 0.0, "perimeter": 0.0, "name": "郑州市", "pname": "河南", "pcode": "410000" }, "geometry": { "type": "Point", "coordinates": [ 113.641828178720687, 34.758248744932601 ] } },
{ "type": "Feature", "properties": { "gid": 325, "area": 0.0, "perimeter": 0.0, "name": "南京市", "pname": "江苏", "pcode": "320000" }, "geometry": { "type": "Point", "coordinates": [ 118.769630202856618, 32.052639960752217 ] } },
{ "type": "Feature", "properties": { "gid": 326, "area": 0.0, "perimeter": 0.0, "name": "西宁市", "pname": "青海", "pcode": "630000" }, "geometry": { "type": "Point", "coordinates": [ 101.784119567003188, 36.609113554737775 ] } },
{ "type": "Feature", "properties": { "gid": 327, "area": 0.0, "perimeter": 0.0, "name": "银川市", "pname": "宁夏", "pcode": "640000" }, "geometry": { "type": "Point", "coordinates": [ 106.274291991704587, 38.467270592971587 ] } },
{ "type": "Feature", "properties": { "gid": 328, "area": 0.0, "perimeter": 0.0, "name": "兰州市", "pname": "甘肃", "pcode": "620000" }, "geometry": { "type": "Point", "coordinates": [ 103.84737984424271, 36.047269537442105 ] } },
{ "type": "Feature", "properties": { "gid": 329, "area": 0.0, "perimeter": 0.0, "name": "太原市", "pname": "山西", "pcode": "140000" }, "geometry": { "type": "Point", "coordinates": [ 112.565337573464959, 37.874013447706474 ] } },
{ "type": "Feature", "properties": { "gid": 330, "area": 0.0, "perimeter": 0.0, "name": "北京市", "pname": "北京", "pcode": "110000" }, "geometry": { "type": "Point", "coordinates": [ 116.368636632589215, 39.93172284464994 ] } },
{ "type": "Feature", "properties": { "gid": 331, "area": 0.0, "perimeter": 0.0, "name": "济南市", "pname": "山东", "pcode": "370000" }, "geometry": { "type": "Point", "coordinates": [ 117.002116525286993, 36.650337884862005 ] } },
{ "type": "Feature", "properties": { "gid": 332, "area": 0.0, "perimeter": 0.0, "name": "石家庄市", "pname": "河北", "pcode": "130000" }, "geometry": { "type": "Point", "coordinates": [ 114.48936217582758, 38.042987031408735 ] } },
{ "type": "Feature", "properties": { "gid": 333, "area": 0.0, "perimeter": 0.0, "name": "天津市", "pname": "天津", "pcode": "120000" }, "geometry": { "type": "Point", "coordinates": [ 117.188473406985892, 39.137241698643734 ] } },
{ "type": "Feature", "properties": { "gid": 334, "area": 0.0, "perimeter": 0.0, "name": "乌鲁木齐市", "pname": "新疆", "pcode": "650000" }, "geometry": { "type": "Point", "coordinates": [ 87.603788671119148, 43.791168313645052 ] } },
{ "type": "Feature", "properties": { "gid": 335, "area": 0.0, "perimeter": 0.0, "name": "呼和浩特市", "pname": "内蒙古", "pcode": "150000" }, "geometry": { "type": "Point", "coordinates": [ 111.664661553315185, 40.815825101749979 ] } },
{ "type": "Feature", "properties": { "gid": 336, "area": 0.0, "perimeter": 0.0, "name": "长春市", "pname": "吉林", "pcode": "220000" }, "geometry": { "type": "Point", "coordinates": [ 125.310280066941289, 43.884759509577954 ] } },
{ "type": "Feature", "properties": { "gid": 337, "area": 0.0, "perimeter": 0.0, "name": "沈阳市", "pname": "辽宁", "pcode": "210000" }, "geometry": { "type": "Point", "coordinates": [ 123.420744387158791, 41.788547085136535 ] } },
{ "type": "Feature", "properties": { "gid": 338, "area": 0.0, "perimeter": 0.0, "name": "哈尔滨市", "pname": "黑龙江", "pcode": "230000" }, "geometry": { "type": "Point", "coordinates": [ 126.646501294806214, 45.74270259637342 ] } },
{ "type": "Feature", "properties": { "gid": 339, "area": 0.0, "perimeter": 0.0, "name": "塔河", "pname": "黑龙江", "pcode": "230000" }, "geometry": { "type": "Point", "coordinates": [ 124.706899269391258, 52.340870680213655 ] } },
{ "type": "Feature", "properties": { "gid": 340, "area": 0.0, "perimeter": 0.0, "name": "济源市", "pname": "河南", "pcode": "410000" }, "geometry": { "type": "Point", "coordinates": [ 112.583160253794958, 35.092624097724602 ] } },
{ "type": "Feature", "properties": { "gid": 341, "area": 0.0, "perimeter": 0.0, "name": "宜兴市", "pname": "江苏", "pcode": "320000" }, "geometry": { "type": "Point", "coordinates": [ 119.815042793752397, 31.363691536281266 ] } },
{ "type": "Feature", "properties": { "gid": 342, "area": 0.0, "perimeter": 0.0, "name": "神农架林区", "pname": "湖北", "pcode": "420000" }, "geometry": { "type": "Point", "coordinates": [ 110.677369408437329, 31.754418751937205 ] } },
{ "type": "Feature", "properties": { "gid": 343, "area": 0.0, "perimeter": 0.0, "name": "天门市", "pname": "湖北", "pcode": "420000" }, "geometry": { "type": "Point", "coordinates": [ 113.16460213119214, 30.656314198478405 ] } },
{ "type": "Feature", "properties": { "gid": 344, "area": 0.0, "perimeter": 0.0, "name": "仙桃市", "pname": "湖北", "pcode": "420000" }, "geometry": { "type": "Point", "coordinates": [ 113.453318490316889, 30.371820423990979 ] } },
{ "type": "Feature", "properties": { "gid": 345, "area": 0.0, "perimeter": 0.0, "name": "潜江市", "pname": "湖北", "pcode": "420000" }, "geometry": { "type": "Point", "coordinates": [ 112.893433666282306, 30.421010818162245 ] } },
{ "type": "Feature", "properties": { "gid": 346, "area": 0.0, "perimeter": 0.0, "name": "防城港市", "pname": "广西", "pcode": "450000" }, "geometry": { "type": "Point", "coordinates": [ 108.356905146348169, 21.768769988029167 ] } },
{ "type": "Feature", "properties": { "gid": 347, "area": 0.0, "perimeter": 0.0, "name": "六库", "pname": "云南", "pcode": "530000" }, "geometry": { "type": "Point", "coordinates": [ 98.661797421473509, 27.747161057728494 ] } }
]
}
